Наименование,Описание,Рубрики,Адрес,Комментарий к адресу,Почтовый индекс,Микрорайон,Район,Город,Округ,Регион,Страна,Часы работы,Часовой пояс,Рейтинг,Количество отзывов,Телефон 1,Телефон 2,Телефон 3,E-mail,Веб-сайт 1,Веб-сайт 2,Instagram,ВКонтакте,WhatsApp 1,WhatsApp 2,WhatsApp 3,Viber,Telegram,Широта,Долгота,2GIS URL
Underground,,Клубы видеоигр,"улица Санжара Асфендиярова, 8",,,,Нура район,Астана,,Астана,Казахстан,Пн: 14:00-05:00; Вт: 14:00-05:00; Ср: 14:00-05:00; Чт: 14:00-05:00; Пт: 14:00-05:00; Сб: 14:00-05:00; Вс: 14:00-05:00,+05:00,5.0,225,87084255099 (служба бронирования),,,,http://taplink.cc/underground.ast,,https://instagram.com/underground_astana,,https://wa.me/77084255099,,,,,51.134083,71.380437,https://2gis.com/firm/70000001080003603
VS,игровой клуб,Клубы видеоигр,"улица Жанайдар Жирентаев, 15а",4 этаж,,4 м-н,Алматы район,Астана,,Астана,Казахстан,Пн: 13:00-08:00; Вт: 13:00-08:00; Ср: 13:00-08:00; Чт: 13:00-08:00; Пт: 13:00-08:00; Сб: 13:00-08:00; Вс: 13:00-08:00,+05:00,4.9,82,87007577348,,,,,,https://instagram.com/vs.ps5,,https://wa.me/77007577348,,,,,51.152953,71.473602,https://2gis.com/firm/70000001055766397
Фанат,игровой клуб,Клубы видеоигр,"улица Шамши Калдаяков, 23/2",1 этаж,,,Сарайшык район,Астана,,Астана,Казахстан,Пн: 00:00-24:00; Вт: 00:00-24:00; Ср: 00:00-24:00; Чт: 00:00-24:00; Пт: 00:00-24:00; Сб: 00:00-24:00; Вс: 00:00-24:00,+05:00,4.6,103,87757255268,,,,,,https://instagram.com/ps5astana_fanat,,https://wa.me/77757255268,,,,,51.114143,71.489716,https://2gis.com/firm/70000001083957291
Chilling Place,,Клубы видеоигр,"проспект Туран, 34Б",,,,Нура район,Астана,,Астана,Казахстан,Пн: 12:00-04:00; Вт: 12:00-04:00; Ср: 12:00-04:00; Чт: 12:00-04:00; Пт: 12:00-04:00; Сб: 12:00-04:00; Вс: 12:00-04:00,+05:00,4.8,92,87025278186,,,,,,https://instagram.com/chillingplaceps01,,https://wa.me/77025278186,,,,,51.122604,71.405165,https://2gis.com/firm/70000001076002372
PlayStart,,Клубы видеоигр,"улица Ахмет Байтурсынулы, 33",,,,Сарайшык район,Астана,,Астана,Казахстан,Пн: 00:00-24:00; Вт: 00:00-24:00; Ср: 00:00-24:00; Чт: 00:00-24:00; Пт: 00:00-24:00; Сб: 00:00-24:00; Вс: 00:00-24:00,+05:00,4.9,72,87004982476,,,,,,https://instagram.com/playstart_5,,https://wa.me/77004982476,,,,,51.121278,71.492502,https://2gis.com/firm/70000001102712838
Imperator,игровой клуб,Клубы видеоигр,"улица Алихан Бокейхан, 6",,,,Есиль район,Астана,,Астана,Казахстан,Пн: 16:00-04:00; Вт: 16:00-04:00; Ср: 16:00-04:00; Чт: 16:00-04:00; Пт: 16:00-04:00; Сб: 16:00-04:00; Вс: 16:00-04:00,+05:00,5.0,4,87716490192,87753857121,,,,,,,https://wa.me/77716490192,https://wa.me/77753857121,,,,51.116909,71.438815,https://2gis.com/firm/70000001104432195
Game Space,,Клубы видеоигр,"проспект Туран, 40/2",цокольный этаж,,,Нура район,Астана,,Астана,Казахстан,Пн: 00:00-24:00; Вт: 00:00-24:00; Ср: 00:00-24:00; Чт: 00:00-24:00; Пт: 00:00-24:00; Сб: 00:00-24:00; Вс: 00:00-24:00,+05:00,5.0,240,87066066697 (отдел бронирования ),87477898950 (отдел жалоб и предложений ),,,,,https://instagram.com/gamespace_ps5,,https://wa.me/77066066697,,,,https://t.me/gamespace_ps,51.115437,71.404753,https://2gis.com/firm/70000001082736917
One Play,,Клубы видеоигр,"улица Алихан Бокейхан, 16/3",цокольный этаж,,,Есиль район,Астана,,Астана,Казахстан,Пн: 00:00-24:00; Вт: 00:00-24:00; Ср: 00:00-24:00; Чт: 00:00-24:00; Пт: 00:00-24:00; Сб: 00:00-24:00; Вс: 00:00-24:00,+05:00,4.9,41,87079589150,,,,http://oneplay.2gis.biz,,https://instagram.com/one_play_playstation,,https://wa.me/77079589150,,,,,51.105689,71.433119,https://2gis.com/firm/70000001101191444
Izzi,игровой клуб,Клубы видеоигр,"Аль-Фараби проспект, 44/1",5 офис,,,Есиль район,Астана,,Астана,Казахстан,Пн: 14:00-04:00; Вт: 14:00-04:00; Ср: 14:00-04:00; Чт: 14:00-04:00; Пт: 14:00-04:00; Сб: 14:00-04:00; Вс: 14:00-04:00,+05:00,5.0,96,87788526907,,,,,,https://instagram.com/izzi_ps,,https://wa.me/77788526907,,,,,51.085975,71.449225,https://2gis.com/firm/70000001081285306
Gold Game,игровой клуб,Клубы видеоигр,"улица Максут Нарикбаев, 9",,,,Нура район,Астана,,Астана,Казахстан,Пн: 16:00-02:00; Вт: 16:00-02:00; Ср: 16:00-02:00; Чт: 16:00-02:00; Пт: 16:00-03:00; Сб: 16:00-03:00; Вс: 16:00-02:00 (по предварительной записи),+05:00,4.7,63,87786028900,,,,,,https://instagram.com/goldgame_01,,https://wa.me/77786028900,,,,,51.146688,71.381966,https://2gis.com/firm/70000001061967150
Чемпион,игровой клуб,Клубы видеоигр,"проспект Шакарим Кудайбердыулы, 25/1",,,,Алматы район,Астана,,Астана,Казахстан,Пн: 00:00-24:00; Вт: 00:00-24:00; Ср: 00:00-24:00; Чт: 00:00-24:00; Пт: 00:00-24:00; Сб: 00:00-24:00; Вс: 00:00-24:00,+05:00,4.6,106,87066631197,87000991113,,abzal14.04@icloud.com,,,https://instagram.com/ps5_champion_ast,,https://wa.me/77066631197,https://wa.me/77000991113,https://wa.me/77071766073,,,51.155235,71.506261,https://2gis.com/firm/70000001025892704
Ultra`s,игровой клуб,Клубы видеоигр,"улица Куйши Дина, 18/1",,,,Алматы район,Астана,,Астана,Казахстан,Пн: 16:00-04:00; Вт: 16:00-04:00; Ср: 16:00-04:00; Чт: 16:00-04:00; Пт: 16:00-04:00; Сб: 16:00-04:00; Вс: 16:00-04:00,+05:00,5.0,32,87773559966,87779888488,,,,,https://instagram.com/ultras.astana,,https://wa.me/77773559966,https://wa.me/77779888488,,,https://t.me/+77773559966,51.14707,71.475241,https://2gis.com/firm/70000001095137084
Тетрис,,Клубы видеоигр,"улица Санжара Асфендиярова, 5",,,,Нура район,Астана,,Астана,Казахстан,Пн: 14:00-07:00; Вт: 14:00-07:00; Ср: 14:00-07:00; Чт: 14:00-07:00; Пт: 14:00-07:00; Сб: 14:00-07:00; Вс: 14:00-07:00,+05:00,4.9,147,87087060096,,,,,,https://instagram.com/tetris_ps5,,https://wa.me/77087060096,,,,,51.132959,71.380185,https://2gis.com/firm/70000001094438974
Берекет,бильярдный клуб,Клубы видеоигр; Бильярдные залы; Клубы настольного тенниса,"улица Кордай, 37а",2 этаж,,Юго-Восток (правая сторона) ж/м,Алматы район,Астана,,Астана,Казахстан,Пн: 12:00-06:00; Вт: 12:00-06:00; Ср: 12:00-06:00; Чт: 12:00-06:00; Пт: 12:00-06:00; Сб: 12:00-06:00; Вс: 12:00-06:00,+05:00,4.9,116,87754458438,,,,,,https://instagram.com/bereket.billiards,,https://wa.me/77754458438,,,,,51.139364,71.499572,https://2gis.com/firm/70000001061751206
PVL 14,клуб видеоигр,Клубы видеоигр,"проспект Бауыржан Момышулы, 18",цокольный этаж,,Юго-Восток (правая сторона) ж/м,Алматы район,Астана,,Астана,Казахстан,Пн: 12:00-05:00; Вт: 12:00-05:00; Ср: 12:00-05:00; Чт: 12:00-05:00; Пт: 12:00-05:00; Сб: 12:00-05:00; Вс: 12:00-05:00,+05:00,4.8,46,87058094234,,,,,,https://instagram.com/pvl._14,,https://wa.me/77058094234,,,,,51.141465,71.485986,https://2gis.com/firm/70000001063120694
Gentlemen,,Клубы видеоигр,"улица Кенесары, 65",,,,Байконыр район,Астана,,Астана,Казахстан,Пн: 00:00-24:00; Вт: 00:00-24:00; Ср: 00:00-24:00; Чт: 00:00-24:00; Пт: 00:00-24:00; Сб: 00:00-24:00; Вс: 00:00-24:00,+05:00,4.8,115,87789450322,,,,,,https://instagram.com/gentlemen_astana,,https://wa.me/77789450322,,,,,51.167828,71.440453,https://2gis.com/firm/70000001080625348
Sonic,,Клубы видеоигр,"улица Машхур Жусип Копейулы, 11",2 этаж,,Юго-Восток (правая сторона) ж/м,Алматы район,Астана,,Астана,Казахстан,Пн: 14:00-05:00; Вт: 14:00-05:00; Ср: 14:00-05:00; Чт: 14:00-05:00; Пт: 14:00-05:00; Сб: 14:00-05:00; Вс: 14:00-05:00,+05:00,5.0,45,87027820209,,,,http://www.tiktok.com/@sonic.astana,,https://instagram.com/sonicastana,,https://wa.me/77027820209,,,,,51.133784,71.497118,https://2gis.com/firm/70000001091211193
Svoy,игровой клуб,Клубы видеоигр,"Керей, Жанибек хандар улица, 30",цокольный этаж,,,Есиль район,Астана,,Астана,Казахстан,Пн: 12:00-04:00; Вт: 12:00-04:00; Ср: 12:00-04:00; Чт: 12:00-04:00; Пт: 12:00-04:00; Сб: 12:00-04:00; Вс: 12:00-04:00,+05:00,5.0,37,87011393032,,,,,,https://instagram.com/svoy.ps5.astana,,https://wa.me/77011393032,,,,,51.111373,71.43757,https://2gis.com/firm/70000001104401043
Liga,игровой клуб,Клубы видеоигр,"улица Александр Бараев, 6",вход со двора,,Жастар м-н,Байконыр район,Астана,,Астана,Казахстан,Пн: 12:00-04:00; Вт: 12:00-04:00; Ср: 12:00-04:00; Чт: 12:00-04:00; Пт: 12:00-04:00; Сб: 12:00-04:00; Вс: 12:00-04:00,+05:00,4.9,136,87075342174,,,,,,https://instagram.com/liga_ps_club,,https://wa.me/77075342174,,,,,51.156597,71.435935,https://2gis.com/firm/70000001082888773
Game Zone,игровой клуб,Клубы видеоигр; Компьютерные клубы,"проспект Женис, 67",,,,Сарыарка район,Астана,,Астана,Казахстан,Пн: 00:00-24:00; Вт: 00:00-24:00; Ср: 00:00-24:00; Чт: 00:00-24:00; Пт: 00:00-24:00; Сб: 00:00-24:00; Вс: 00:00-24:00 (по предварительному звонку),+05:00,4.4,376,87713567171,87716147171,,,,,https://instagram.com/gamezone.astana,,https://wa.me/77716147171,https://wa.me/77713567171,,,,51.185866,71.407687,https://2gis.com/firm/70000001038152879
HUSTLE,,Клубы видеоигр,"улица Култегин, 14",,,,Нура район,Астана,,Астана,Казахстан,Пн: 14:00-03:00; Вт: 14:00-03:00; Ср: 14:00-03:00; Чт: 14:00-03:00; Пт: 14:00-03:00; Сб: 14:00-03:00; Вс: 14:00-03:00,+05:00,4.9,115,87010934466,87055314761,,,,,https://instagram.com/hustleps5,,https://wa.me/77055314761,,,,,51.136597,71.375084,https://2gis.com/firm/70000001051214675
Qazaqpeek Cyber Club,компьютерный клуб,Клубы видеоигр; Компьютерные клубы,"улица Кенесары, 69",,,,Байконыр район,Астана,,Астана,Казахстан,Пн: 00:00-24:00; Вт: 00:00-24:00; Ср: 00:00-24:00; Чт: 00:00-24:00; Пт: 00:00-24:00; Сб: 00:00-24:00; Вс: 00:00-24:00,+05:00,4.8,28,87066055465,,,,,,https://instagram.com/qazaqpeek_astana,,https://wa.me/77066055465,,,,,51.16839,71.447188,https://2gis.com/firm/70000001101281437
Eleven Cyber Zone,,Клубы видеоигр; Компьютерные клубы,"улица Каныш Сатпаев, 24",,,Юго-Восток (правая сторона) ж/м,Алматы район,Астана,,Астана,Казахстан,Пн: 00:00-24:00; Вт: 00:00-24:00; Ср: 00:00-24:00; Чт: 00:00-24:00; Пт: 00:00-24:00; Сб: 00:00-24:00; Вс: 00:00-24:00,+05:00,4.6,238,87717685067,,,,,,https://instagram.com/eleven.cyberzone,,https://wa.me/77717685067,,,,,51.137773,71.478858,https://2gis.com/firm/70000001061556358
Бильярд 46/10,,Клубы видеоигр; Бильярдные залы; Клубы настольного тенниса,"проспект Тауелсиздик, 46/10",2 этаж,,Юго-Восток (правая сторона) ж/м,Алматы район,Астана,,Астана,Казахстан,Пн: 12:00-03:00; Вт: 12:00-03:00; Ср: 12:00-03:00; Чт: 12:00-03:00; Пт: 12:00-03:00; Сб: 12:00-03:00; Вс: 12:00-03:00,+05:00,4.8,91,87713966286,,,,,,https://instagram.com/billiard_46_10,,https://wa.me/77713966286,,,,,51.13188,71.470806,https://2gis.com/firm/70000001089236072
Game club Dragao,клуб видеоигр,Клубы видеоигр,"проспект Сарыарка, 11",,,,Сарыарка район,Астана,,Астана,Казахстан,Пн: 00:00-24:00; Вт: 00:00-24:00; Ср: 00:00-24:00; Чт: 00:00-24:00; Пт: 00:00-24:00; Сб: 00:00-24:00; Вс: 00:00-24:00,+05:00,4.8,22,87781717691,,,,,,https://instagram.com/dragao_game_club,,https://wa.me/77781717691,,,,,51.163778,71.408567,https://2gis.com/firm/70000001096757067
Фанат,игровой клуб,Клубы видеоигр,"улица Шокана Уалиханова, 12",,,,Байконыр район,Астана,,Астана,Казахстан,Пн: 00:00-24:00; Вт: 00:00-24:00; Ср: 00:00-24:00; Чт: 00:00-24:00; Пт: 00:00-24:00; Сб: 00:00-24:00; Вс: 00:00-24:00,+05:00,4.8,618,87780293227,87172999934,,,http://70000001080789116.2gis.biz,,https://instagram.com/playstation.fanat,,https://wa.me/77780293227,,,,,51.168999,71.440792,https://2gis.com/firm/70000001020681641
Revansh,,Клубы видеоигр,"улица Жумекен Нажимеденов, 16Б",цокольный этаж,,,Сарайшык район,Астана,,Астана,Казахстан,Пн: 12:00-04:00; Вт: 12:00-04:00; Ср: 12:00-04:00; Чт: 12:00-04:00; Пт: 12:00-04:00; Сб: 12:00-04:00; Вс: 12:00-04:00,+05:00,4.8,118,87473893720,87765477261 (служба поддержки клиентов),,,,,https://instagram.com/astana_revansh,,https://wa.me/77473893720,,,,,51.118043,71.477725,https://2gis.com/firm/70000001068068123
Team Play,,Клубы видеоигр; Компьютерные клубы,"улица Толе би, 16",1 этаж; НП: 16,,,Нура район,Астана,,Астана,Казахстан,Пн: 00:00-24:00; Вт: 00:00-24:00; Ср: 00:00-24:00; Чт: 00:00-24:00; Пт: 00:00-24:00; Сб: 00:00-24:00; Вс: 00:00-24:00,+05:00,4.9,120,87081446245,,,,,,https://instagram.com/teamplaykz,,https://wa.me/77081446245,,,,,51.100113,71.388767,https://2gis.com/firm/70000001094228127
Ast Game,клуб видеоигр,Клубы видеоигр,"улица Сауран, 12/1",цокольный этаж,,,Есиль район,Астана,,Астана,Казахстан,Пн: 14:00-04:00; Вт: 14:00-04:00; Ср: 14:00-04:00; Чт: 14:00-04:00; Пт: 14:00-04:00; Сб: 14:00-04:00; Вс: 14:00-04:00,+05:00,4.7,80,87759325872,87759130359,,,,,https://instagram.com/ast_game.sauran,,https://wa.me/77759130359,,,,,51.118699,71.420995,https://2gis.com/firm/70000001071545434
The Hood,компьютерный клуб,Клубы видеоигр; Компьютерные клубы,"улица Кайым Мухамедханов, 4 блок А",,,,Нура район,Астана,,Астана,Казахстан,Пн: 00:00-24:00; Вт: 00:00-24:00; Ср: 00:00-24:00; Чт: 00:00-24:00; Пт: 00:00-24:00; Сб: 00:00-24:00; Вс: 00:00-24:00,+05:00,4.8,50,87072307828,,,,,,https://instagram.com/thehood2_astana,,https://wa.me/77072307828,,,,,51.137511,71.400416,https://2gis.com/firm/70000001103198125
Qasqir Rooms,,Клубы видеоигр; Компьютерные клубы,"улица Кыз Жибек, 3а",,,Караоткель-1 м-н,Нура район,Астана,,Астана,Казахстан,Пн: 00:00-24:00; Вт: 00:00-24:00; Ср: 00:00-24:00; Чт: 00:00-24:00; Пт: 00:00-24:00; Сб: 00:00-24:00; Вс: 00:00-24:00,+05:00,4.7,26,87000887999,,,,http://taplink.cc/qasqir_rooms,,https://instagram.com/qasqir_rooms,,https://wa.me/77000887999,https://wa.me/77000886999,,,,51.140869,71.407462,https://2gis.com/firm/70000001098207477
Real Gamers,игровой клуб,Клубы видеоигр; Компьютерные клубы,"улица Илияс Омаров, 23",7 офис; 1 этаж,,,Нура район,Астана,,Астана,Казахстан,Пн: 00:00-24:00; Вт: 00:00-24:00; Ср: 00:00-24:00; Чт: 00:00-24:00; Пт: 00:00-24:00; Сб: 00:00-24:00; Вс: 00:00-24:00,+05:00,4.9,418,87053065111,,,,,,https://instagram.com/realgamers.kz,,https://wa.me/77053065111,,,,,51.13957,71.36988,https://2gis.com/firm/70000001078898473
Corner,,Клубы видеоигр,"Керей, Жанибек хандар улица, 9",цокольный этаж,,,Есиль район,Астана,,Астана,Казахстан,Пн: 13:00-05:00; Вт: 13:00-05:00; Ср: 13:00-05:00; Чт: 13:00-05:00; Пт: 13:00-05:00; Сб: 13:00-05:00; Вс: 13:00-05:00,+05:00,4.8,104,87020513424,,,,,,https://instagram.com/corner_ps5,,https://wa.me/77020513424,,,,,51.116143,71.413963,https://2gis.com/firm/70000001076227162
Victory Cyber Arena,,Клубы видеоигр; Компьютерные клубы,"улица Сарайшык, 4",2 этаж; вход через супермаркет 7 дән,,,Есиль район,Астана,,Астана,Казахстан,Пн: 00:00-24:00; Вт: 00:00-24:00; Ср: 00:00-24:00; Чт: 00:00-24:00; Пт: 00:00-24:00; Сб: 00:00-24:00; Вс: 00:00-24:00,+05:00,4.7,141,87087153039,,,,,,https://instagram.com/victory.cyber,,https://wa.me/77087153039,,,,,51.134911,71.418171,https://2gis.com/firm/70000001080271785
XAH.exe,,Клубы видеоигр; Компьютерные клубы,"улица Гейдара Алиева, 3",,,,Есиль район,Астана,,Астана,Казахстан,Пн: 00:00-24:00; Вт: 00:00-24:00; Ср: 00:00-24:00; Чт: 00:00-24:00; Пт: 00:00-24:00; Сб: 00:00-24:00; Вс: 00:00-24:00,+05:00,4.8,54,87012233333,,,xancyberclub@gmail.com,,,https://instagram.com/xah.exe,,https://wa.me/77012233333,,,,,51.099366,71.411478,https://2gis.com/firm/70000001100814534
BRO,сеть компьютерных клубов,Клубы видеоигр; Компьютерные клубы,"улица Динмухамед Конаев, 14",,,,Есиль район,Астана,,Астана,Казахстан,Пн: 00:00-24:00; Вт: 00:00-24:00; Ср: 00:00-24:00; Чт: 00:00-24:00; Пт: 00:00-24:00; Сб: 00:00-24:00; Вс: 00:00-24:00,+05:00,4.8,290,87755037514,,,,http://brocyberclub.kz/,http://www.tiktok.com/@brocyberclub.kz,https://instagram.com/brocyberclub,,https://wa.me/77755037514,,,,,51.127957,71.437359,https://2gis.com/firm/70000001088183398
OINA,игровой клуб,Клубы видеоигр,"улица Сыганак, 39/1",цокольный этаж,,,Есиль район,Астана,,Астана,Казахстан,Пн: 12:00-06:00; Вт: 12:00-06:00; Ср: 12:00-06:00; Чт: 12:00-06:00; Пт: 12:00-06:00; Сб: 12:00-06:00; Вс: 12:00-06:00,+05:00,4.7,123,87078632313,,,,http://oina-psclub.2gis.biz/,,https://instagram.com/oina_psclub,,https://wa.me/77078632313,,,,,51.124815,71.425584,https://2gis.com/firm/70000001068820829
P.S. XoXo,,Клубы видеоигр,"улица Санжара Асфендиярова, 8",2 этаж,,,Нура район,Астана,,Астана,Казахстан,Пн: 17:00-03:00; Вт: 17:00-03:00; Ср: 17:00-03:00; Чт: 17:00-03:00; Пт: 17:00-04:00; Сб: 17:00-04:00; Вс: 17:00-03:00,+05:00,4.8,66,87761919333,87782999991,,jayd92@mail.ru,http://my.matterport.com/show/?m=GtvkGZr7meX,,https://instagram.com/p.s.xoxo_kz,,https://wa.me/77761919333,https://wa.me/77782999991,,,,51.134853,71.380361,https://2gis.com/firm/70000001089386706
Vamos!,игровой клуб,Клубы видеоигр,"Кабанбай батыр проспект, 29/1 блок А",1 офис; вывеска ozon,,,Нура район,Астана,,Астана,Казахстан,Пн: 11:00-03:00; Вт: 11:00-03:00; Ср: 11:00-03:00; Чт: 11:00-03:00; Пт: 11:00-03:00; Сб: 11:00-03:00; Вс: 11:00-03:00,+05:00,4.9,156,87080400015,,,,,,https://instagram.com/vamos.zone,,https://wa.me/77080400015,,,,,51.124844,71.409733,https://2gis.com/firm/70000001099022810
Chiro Bombardir,,Клубы видеоигр,"проспект Мангилик Ел, 54/2",,,,Есиль район,Астана,,Астана,Казахстан,Пн: 12:00-06:00; Вт: 12:00-06:00; Ср: 12:00-06:00; Чт: 12:00-06:00; Пт: 12:00-06:00; Сб: 12:00-06:00; Вс: 12:00-06:00 (до последнего гостя),+05:00,4.8,147,87713270756 (администрация),87779942104 (руководитель),,,,,https://instagram.com/chiro.ps.club,,https://wa.me/77713270756,,,,,51.089604,71.426445,https://2gis.com/firm/70000001080496791
MetaForce,,Клубы видеоигр; Центры виртуальной реальности; Клубы настольных игр,"улица Кайым Мухамедханов, 17",НП: 122,,,Нура район,Астана,,Астана,Казахстан,Пн: 10:00-22:00; Вт: 10:00-22:00; Ср: 10:00-22:00; Чт: 10:00-22:00; Пт: 10:00-22:00; Сб: 10:00-22:00; Вс: 10:00-22:00,+05:00,5.0,219,87055844444,,,metaforce_astana@mail.ru,http://metaforce.ru/astana,,https://instagram.com/metaforce.kz,,https://wa.me/77055844444,,,,,51.141633,71.38737,https://2gis.com/firm/70000001096907952
BRO,сеть компьютерных клубов,Клубы видеоигр; Компьютерные клубы,"улица Кажымукан, 8а",,,2 м-н,Алматы район,Астана,,Астана,Казахстан,Пн: 00:00-24:00; Вт: 00:00-24:00; Ср: 00:00-24:00; Чт: 00:00-24:00; Пт: 00:00-24:00; Сб: 00:00-24:00; Вс: 00:00-24:00,+05:00,4.8,669,87713455196,,,,http://brocyberclub.kz/,http://www.tiktok.com/@brocyberclub.kz,https://instagram.com/brocyberclub,,https://wa.me/77713455196,,,,https://t.me/bro_enu,51.152871,71.463925,https://2gis.com/firm/70000001077339859
Colizeum,киберспортивный клуб,Клубы видеоигр; Компьютерные клубы,"улица Куйши Дина, 20",5 этаж,,,Алматы район,Астана,,Астана,Казахстан,Пн: 00:00-24:00; Вт: 00:00-24:00; Ср: 00:00-24:00; Чт: 00:00-24:00; Пт: 00:00-24:00; Сб: 00:00-24:00; Вс: 00:00-24:00,+05:00,4.9,1066,87058883066,,,,,,https://instagram.com/colizeum_astana_kyushidina,,https://wa.me/77058883066,,,,,51.147399,71.476202,https://2gis.com/firm/70000001076513683
BRO,сеть компьютерных клубов,Клубы видеоигр; Компьютерные клубы,"проспект Ракымжан Кошкарбаев, 27",2 этаж,,,Алматы район,Астана,,Астана,Казахстан,Пн: 00:00-24:00; Вт: 00:00-24:00; Ср: 00:00-24:00; Чт: 00:00-24:00; Пт: 00:00-24:00; Сб: 00:00-24:00; Вс: 00:00-24:00,+05:00,4.7,454,87775777307 (отдел бронирования),,,,http://brocyberclub.kz/,http://www.tiktok.com/@brocyberclub.kz,https://instagram.com/brocyberclub,,https://wa.me/77775777307,,,,https://t.me/brosenator,51.127667,71.489696,https://2gis.com/firm/70000001069280469
BRO,сеть компьютерных клубов,Клубы видеоигр; Компьютерные клубы,"проспект Мангилик Ел, 53",,,,Есиль район,Астана,,Астана,Казахстан,Пн: 00:00-24:00; Вт: 00:00-24:00; Ср: 00:00-24:00; Чт: 00:00-24:00; Пт: 00:00-24:00; Сб: 00:00-24:00; Вс: 00:00-24:00,+05:00,4.7,448,87755037706,,,,http://brocyberclub.kz/,http://www.tiktok.com/@brocyberclub.kz,https://instagram.com/brocyberclub,,https://wa.me/77755037706,,,,https://t.me/broexpo,51.093142,71.424927,https://2gis.com/firm/70000001084029307
Strike Arena,,Клубы видеоигр; Компьютерные клубы,"Кабанбай батыр проспект, 56",около 1 подъезда,,,Есиль район,Астана,,Астана,Казахстан,Пн: 00:00-24:00; Вт: 00:00-24:00; Ср: 00:00-24:00; Чт: 00:00-24:00; Пт: 00:00-24:00; Сб: 00:00-24:00; Вс: 00:00-24:00,+05:00,4.8,113,87000608559,,,strikearena.astana@gmail.com,http://strike-arena.kz,,https://instagram.com/strikearena_astana,,https://wa.me/77763608559,,,,https://t.me/strikearenaastana,51.101582,71.408554,https://2gis.com/firm/70000001097382279
Taktika,,Клубы видеоигр,"проспект Мангилик Ел, 52 блок B3",,,,Есиль район,Астана,,Астана,Казахстан,Пн: 00:00-24:00; Вт: 00:00-24:00; Ср: 00:00-24:00; Чт: 00:00-24:00; Пт: 00:00-24:00; Сб: 00:00-24:00; Вс: 00:00-24:00,+05:00,4.6,151,87004330433 (служба бронирования),87077774253,,,http://taktikaps5.com,http://jivo.chat/uPqAI4O51e,https://instagram.com/taktika_ps5,https://vk.com/taktika_ps5,https://wa.me/77004330433,,,,https://t.me/taktika_ps5,51.093551,71.428008,https://2gis.com/firm/70000001069435772
BRO,сеть компьютерных клубов,Клубы видеоигр; Компьютерные клубы,"проспект Туран, 41/1",,,,Нура район,Астана,,Астана,Казахстан,Пн: 00:00-24:00; Вт: 00:00-24:00; Ср: 00:00-24:00; Чт: 00:00-24:00; Пт: 00:00-24:00; Сб: 00:00-24:00; Вс: 00:00-24:00,+05:00,4.8,34,87083159638,,,,http://brocyberclub.kz/,http://www.tiktok.com/@brocyberclub.kz,https://instagram.com/brocyberclub,,,,,,,51.126633,71.401245,https://2gis.com/firm/70000001104523813
Aztec cyber temple,компьютерный клуб,Клубы видеоигр; Компьютерные клубы,"улица Алихан Бокейхан, 38",,,,Есиль район,Астана,,Астана,Казахстан,Пн: 00:00-24:00; Вт: 00:00-24:00; Ср: 00:00-24:00; Чт: 00:00-24:00; Пт: 00:00-24:00; Сб: 00:00-24:00; Вс: 00:00-24:00,+05:00,4.6,410,87782847256,,,,,,https://instagram.com/azteccybergame,,https://wa.me/77782847835,,,,,51.091052,71.427484,https://2gis.com/firm/70000001062448259
6.16,игровой клуб,Клубы видеоигр,"Аль-Фараби проспект, 11/1",1 этаж,,,Есиль район,Астана,,Астана,Казахстан,Пн: 16:00-02:00; Вт: 16:00-02:00; Ср: 16:00-02:00; Чт: 16:00-02:00; Пт: 16:00-03:00; Сб: 16:00-03:00; Вс: 16:00-03:00,+05:00,4.7,137,87473100616,,,,,,https://instagram.com/ps_6.16,,https://wa.me/77473100616,,,,,51.097193,71.449376,https://2gis.com/firm/70000001063366415
Mouse,игровой клуб,Клубы видеоигр,"улица Кажымукан, 16",,,4 м-н,Алматы район,Астана,,Астана,Казахстан,Пн: 00:00-24:00; Вт: 00:00-24:00; Ср: 00:00-24:00; Чт: 00:00-24:00; Пт: 00:00-24:00; Сб: 00:00-24:00; Вс: 00:00-24:00,+05:00,4.6,462,87778345223,,,,,,https://instagram.com/mouse_astana,,https://wa.me/77778345223,,,viber://chat/?number=77778345223,,51.154747,71.470458,https://2gis.com/firm/70000001030532345
The Loft,игровой клуб,Клубы видеоигр,"проспект Мангилик Ел, 19",цокольный этаж,,,Есиль район,Астана,,Астана,Казахстан,Пн: 14:00-03:00; Вт: 14:00-03:00; Ср: 14:00-03:00; Чт: 14:00-03:00; Пт: 14:00-04:00; Сб: 14:00-04:00; Вс: 14:00-03:00,+05:00,4.4,89,87475487070,87084254039,,,,,https://instagram.com/the_loft_astana,,https://wa.me/77084254039,,,,,51.114564,71.432796,https://2gis.com/firm/70000001032710189
OyBoy Cyber Club,компьютерный и автосимуляторный клуб,Клубы видеоигр; Компьютерные клубы,"улица Ахмет Байтурсынулы, 43/4",2 этаж,,,Сарайшык район,Астана,,Астана,Казахстан,Пн: 00:00-24:00; Вт: 00:00-24:00; Ср: 00:00-24:00; Чт: 00:00-24:00; Пт: 00:00-24:00; Сб: 00:00-24:00; Вс: 00:00-24:00,+05:00,4.9,386,87056223005,,,,,,https://instagram.com/oyboy.cyberclub,,https://wa.me/77056223005,,,,,51.118808,71.508303,https://2gis.com/firm/70000001075089440
Bombardir,,Клубы видеоигр,"Аль-Фараби проспект, 15",11 офис,,,Есиль район,Астана,,Астана,Казахстан,Пн: 13:00-04:00; Вт: 13:00-04:00; Ср: 13:00-04:00; Чт: 13:00-04:00; Пт: 13:00-04:00; Сб: 13:00-04:00; Вс: 13:00-04:00 (до последнего клиента: пн-вс),+05:00,4.9,100,87058051368,87766088080,,,,,https://instagram.com/bombardir_ps5_astana,,https://wa.me/77058685999,,,,,51.095641,71.449088,https://2gis.com/firm/70000001065643371
Base for Race,клуб гоночных симуляторов и видеоигр,Клубы видеоигр; Компьютерные клубы,"проспект Туран, 45/1",,,,Нура район,Астана,,Астана,Казахстан,Пн: 14:00-02:00; Вт: 14:00-02:00; Ср: 14:00-02:00; Чт: 14:00-02:00; Пт: 14:00-03:00; Сб: 14:00-03:00; Вс: 14:00-02:00,+05:00,4.8,90,87760221233,,,,,,https://instagram.com/base_for_race_ast,,https://wa.me/77760221233,,,,,51.122415,71.399875,https://2gis.com/firm/70000001090547753
Super Liga,,Клубы видеоигр,"проспект Бауыржан Момышулы, 2/6",цокольный этаж,,,Алматы район,Астана,,Астана,Казахстан,Пн: 13:00-06:00; Вт: 13:00-06:00; Ср: 13:00-06:00; Чт: 13:00-06:00; Пт: 13:00-06:00; Сб: 13:00-06:00; Вс: 13:00-06:00,+05:00,4.8,80,87055337771,,,,,,https://instagram.com/ps5_superliga,,https://wa.me/77055337771,,,,,51.134346,71.462115,https://2gis.com/firm/70000001061579513
6.16,игровой клуб,Клубы видеоигр,"проспект Туран, 57/3",,,,Нура район,Астана,,Астана,Казахстан,Пн: 16:00-02:00; Вт: 16:00-02:00; Ср: 16:00-02:00; Чт: 16:00-02:00; Пт: 16:00-03:00; Сб: 16:00-03:00; Вс: 16:00-03:00,+05:00,4.7,75,87763100616,,,,,,https://instagram.com/ps_6.16,,https://wa.me/77763100616,,,,,51.105523,71.395916,https://2gis.com/firm/70000001072104678
Taktika,,Клубы видеоигр,"улица Кенен Азербаев, 47",,,,Сарайшык район,Астана,,Астана,Казахстан,Пн: 00:00-24:00; Вт: 00:00-24:00; Ср: 00:00-24:00; Чт: 00:00-24:00; Пт: 00:00-24:00; Сб: 00:00-24:00; Вс: 00:00-24:00,+05:00,4.6,137,87077774259 (служба бронирования),87077774253,,,http://taktikaps5.com,http://jivo.chat/uPqAI4O51e,https://instagram.com/taktika_ps5,https://vk.com/taktika_ps5,https://wa.me/77077774259,,,,https://t.me/taktika_ps5,51.128884,71.504276,https://2gis.com/firm/70000001055311930
Eleven,игровой клуб,Клубы видеоигр,"улица Гейдара Алиева, 1",цокольный этаж,,,Есиль район,Астана,,Астана,Казахстан,Пн: 14:00-05:00; Вт: 14:00-05:00; Ср: 14:00-05:00; Чт: 14:00-05:00; Пт: 14:00-05:00; Сб: 12:00-05:00; Вс: 12:00-05:00,+05:00,4.7,90,87755198162,87078765262,87715111441,,,,https://instagram.com/eleven_ps5,,https://wa.me/77755198162,https://wa.me/77078765262,https://wa.me/77715111441,,,51.100726,71.411852,https://2gis.com/firm/70000001052443517
TeamRacing club,гоночный симулятор,Клубы видеоигр; Компьютерные клубы,"проспект Абылай хана, 27/4",,,,Алматы район,Астана,,Астана,Казахстан,Пн: 12:00-04:00; Вт: 12:00-04:00; Ср: 12:00-04:00; Чт: 12:00-04:00; Пт: 12:00-04:00; Сб: 12:00-04:00; Вс: 12:00-04:00 (по предварительной записи),+05:00,4.6,117,,,,,http://tiktok.com/team_racing_ast,,https://instagram.com/tracing_ast,,https://wa.me/77066788708,,,,https://t.me/+77066788708,51.158072,71.486578,https://2gis.com/firm/70000001081226367
Taktika,,Клубы видеоигр,"улица Сыганак, 16",,,,Нура район,Астана,,Астана,Казахстан,Пн: 00:00-24:00; Вт: 00:00-24:00; Ср: 00:00-24:00; Чт: 00:00-24:00; Пт: 00:00-24:00; Сб: 00:00-24:00; Вс: 00:00-24:00,+05:00,4.8,136,87077774248 (отдел бронирования ),87077774253,,,http://taktikaps5.com,http://jivo.chat/uPqAI4O51e,https://instagram.com/taktika_ps5,https://vk.com/taktika_ps5,https://wa.me/77077774248,,,,https://t.me/taktika_ps5,51.129378,71.378634,https://2gis.com/firm/70000001081852695
Brothers,компьютерный клуб,Клубы видеоигр; Компьютерные клубы,"проспект Улы Дала, 65",,,,Есиль район,Астана,,Астана,Казахстан,Пн: 00:00-24:00; Вт: 00:00-24:00; Ср: 00:00-24:00; Чт: 00:00-24:00; Пт: 00:00-24:00; Сб: 00:00-24:00; Вс: 00:00-24:00,+05:00,4.8,537,87759450723 (отдел бронирования),,,,,,https://instagram.com/brothers_astana,,https://wa.me/77759450723,,,,,51.094322,71.442558,https://2gis.com/firm/70000001037713195
Status Cyber Arena,компьютерный клуб,Клубы видеоигр; Компьютерные клубы; Копировальные услуги,"улица Каныш Сатпаев, 22",3 этаж,,Юго-Восток (правая сторона) ж/м,Алматы район,Астана,,Астана,Казахстан,Пн: 00:00-24:00; Вт: 00:00-24:00; Ср: 00:00-24:00; Чт: 00:00-24:00; Пт: 00:00-24:00; Сб: 00:00-24:00; Вс: 00:00-24:00,+05:00,4.7,476,87769399399 (Администратор),87024570899 (круглосуточно),,,http://taplink.cc/status_cybersport,,https://instagram.com/status_cyber_arena,,https://wa.me/77769399399,https://wa.me/77024570899,,,,51.139325,71.477568,https://2gis.com/firm/70000001063163722
In-Game Leader,,Клубы видеоигр; Компьютерные клубы,"улица Е 900, 2",НП: 14,,,Нура район,Астана,,Астана,Казахстан,Пн: 00:00-24:00; Вт: 00:00-24:00; Ср: 00:00-24:00; Чт: 00:00-24:00; Пт: 00:00-24:00; Сб: 00:00-24:00; Вс: 00:00-24:00,+05:00,4.4,174,87000505045,,,,,,https://instagram.com/igl.cyberspace,,https://wa.me/77000505045,,,,,51.132697,71.393407,https://2gis.com/firm/70000001076576058
Colizeum,,Клубы видеоигр; Компьютерные клубы,"проспект Сарыарка, 11",,,,Сарыарка район,Астана,,Астана,Казахстан,Пн: 00:00-24:00; Вт: 00:00-24:00; Ср: 00:00-24:00; Чт: 00:00-24:00; Пт: 00:00-24:00; Сб: 00:00-24:00; Вс: 00:00-24:00,+05:00,4.8,372,87479889830,,,,http://colizeum.ru,,https://instagram.com/colizeum_astana,https://vk.com/colizeum_astana,https://wa.me/77479889830,,,,,51.163611,71.408616,https://2gis.com/firm/70000001061806386
OINA,игровой клуб,Клубы видеоигр,"Керей, Жанибек хандар улица, 15",1 этаж; НП: 11,,,Есиль район,Астана,,Астана,Казахстан,Пн: 12:00-06:00; Вт: 12:00-06:00; Ср: 12:00-06:00; Чт: 12:00-06:00; Пт: 12:00-06:00; Сб: 12:00-06:00; Вс: 12:00-06:00,+05:00,4.3,41,87053157465,,,,http://oina-psclub.2gis.biz/,,https://instagram.com/oina_psclub,,,,,,,51.113346,71.437065,https://2gis.com/firm/70000001063237118
B.Boogzzz,игровой клуб,Клубы видеоигр,"проспект Республики, 10",2 этаж,,,Байконыр район,Астана,,Астана,Казахстан,Пн: 14:00-08:00; Вт: 14:00-08:00; Ср: 14:00-08:00; Чт: 14:00-08:00; Пт: 14:00-08:00; Сб: 14:00-08:00; Вс: 14:00-08:00,+05:00,4.3,80,87020006985,,,,,,https://instagram.com/bboogzzz,,https://wa.me/77020006985,,,,,51.160526,71.429366,https://2gis.com/firm/70000001018063733
Game Club 2+1,игровой клуб,Клубы видеоигр,"проспект Ракымжан Кошкарбаев, 34",2 этаж,,,Сарайшык район,Астана,,Астана,Казахстан,Пн: 14:00-04:00; Вт: 14:00-04:00; Ср: 14:00-04:00; Чт: 14:00-04:00; Пт: 14:00-04:00; Сб: 14:00-04:00; Вс: 14:00-04:00,+05:00,4.8,117,87761657249,,,,,,https://instagram.com/2plus1_ps_club,,https://wa.me/77761657249,,,,,51.124994,71.484215,https://2gis.com/firm/70000001035235869
New York game city,,Клубы видеоигр,"улица Жанибека тархана, 17",цокольный этаж,,Целинный м-н,Байконыр район,Астана,,Астана,Казахстан,Пн: 12:00-06:00; Вт: 12:00-06:00; Ср: 12:00-06:00; Чт: 12:00-06:00; Пт: 12:00-06:00; Сб: 12:00-06:00; Вс: 12:00-06:00,+05:00,4.7,49,87473962575,,,,,,https://instagram.com/new_york_game_city,,https://wa.me/77473962575,,,,,51.159093,71.457428,https://2gis.com/firm/70000001075941481
Dazn,игровой клуб,Клубы видеоигр,"Кабанбай батыр проспект, 40",цокольный этаж,,,Есиль район,Астана,,Астана,Казахстан,Пн: 12:00-04:00; Вт: 12:00-04:00; Ср: 12:00-04:00; Чт: 12:00-04:00; Пт: 12:00-04:00; Сб: 12:00-04:00; Вс: 12:00-04:00,+05:00,4.7,107,87758880244,,,,,,https://instagram.com/ps5.dazn_astana,,https://wa.me/77758880244,,,,,51.121372,71.414428,https://2gis.com/firm/70000001062340611
Ronin,компьютерный клуб,Клубы видеоигр; Компьютерные клубы,"улица Култегин, 10",,,,Нура район,Астана,,Астана,Казахстан,Пн: 00:00-24:00; Вт: 00:00-24:00; Ср: 00:00-24:00; Чт: 00:00-24:00; Пт: 00:00-24:00; Сб: 00:00-24:00; Вс: 00:00-24:00,+05:00,4.6,200,87473008161,,,,,,https://instagram.com/ronin_cyberclub,,https://wa.me/77473008161,,,,,51.133009,71.374652,https://2gis.com/firm/70000001094808964
Кубок,игровой клуб,Клубы видеоигр,"улица Алексея Петрова, 31",,,5 м-н,Алматы район,Астана,,Астана,Казахстан,Пн: 11:00-06:00; Вт: 11:00-06:00; Ср: 11:00-06:00; Чт: 11:00-06:00; Пт: 11:00-06:00; Сб: 11:00-06:00; Вс: 11:00-06:00,+05:00,4.9,59,87080509595,,,,,,https://instagram.com/ps.kubok,,https://wa.me/77080509595,,,,,51.151658,71.4789,https://2gis.com/firm/70000001080783526
Nxt Lvl,,Клубы видеоигр; Компьютерные клубы; Прокат игровых приставок,"улица Туркестан, 34/1",,,,Есиль район,Астана,,Астана,Казахстан,Пн: 00:00-24:00; Вт: 00:00-24:00; Ср: 00:00-24:00; Чт: 00:00-24:00; Пт: 00:00-24:00; Сб: 00:00-24:00; Вс: 00:00-24:00,+05:00,5.0,48,87756650099,,,,,,https://instagram.com/nxt_lvl.ast,,https://wa.me/77756650099,,,,,51.094913,71.421715,https://2gis.com/firm/70000001102742723
Playburg,,Клубы видеоигр,"проспект Бауыржан Момышулы, 2/5",,,,Алматы район,Астана,,Астана,Казахстан,Пн: 00:00-24:00; Вт: 00:00-24:00; Ср: 00:00-24:00; Чт: 00:00-24:00; Пт: 00:00-24:00; Сб: 00:00-24:00; Вс: 00:00-24:00,+05:00,4.7,211,87005558940,,,,,,https://instagram.com/playburg_kz,,https://wa.me/77005558940,,,,,51.135836,71.465589,https://2gis.com/firm/70000001063424613
F1,,Клубы видеоигр; Компьютерные клубы,"улица Казыбек би, 9/1",,,,Нура район,Астана,,Астана,Казахстан,Пн: 00:00-24:00; Вт: 00:00-24:00; Ср: 00:00-24:00; Чт: 00:00-24:00; Пт: 00:00-24:00; Сб: 00:00-24:00; Вс: 00:00-24:00,+05:00,4.4,33,87775853353,,,,,,,,https://wa.me/77775853353,,,,,51.117648,71.389835,https://2gis.com/firm/70000001098967572
Boss LeveL,,Клубы видеоигр; Прокат игровых приставок,"Керей, Жанибек хандар улица, 14/2 блок D",,,,Есиль район,Астана,,Астана,Казахстан,Пн: 13:00-05:00; Вт: 13:00-05:00; Ср: 13:00-05:00; Чт: 13:00-05:00; Пт: 13:00-05:00; Сб: 13:00-05:00; Вс: 13:00-05:00,+05:00,5.0,50,87070630101,,,,http://tiktok.com/@bosslevel_gaming_club,,https://instagram.com/boss_level_gaming_club,,https://wa.me/77070630101,,,,,51.11421,71.41901,https://2gis.com/firm/70000001100097224
Eleven Cyber Zone,,Клубы видеоигр; Компьютерные клубы,"улица Санжара Асфендиярова, 8",,,,Нура район,Астана,,Астана,Казахстан,Пн: 00:00-24:00; Вт: 00:00-24:00; Ср: 00:00-24:00; Чт: 00:00-24:00; Пт: 00:00-24:00; Сб: 00:00-24:00; Вс: 00:00-24:00,+05:00,4.6,256,87761110056,,,,,,https://instagram.com/eleven.cyberzone,,https://wa.me/77761110056,,,,,51.134024,71.380894,https://2gis.com/firm/70000001069400530
Portal,,Клубы видеоигр,"проспект Сарыарка, 42",цокольный этаж,,,Сарыарка район,Астана,,Астана,Казахстан,Пн: 10:00-05:00; Вт: 10:00-05:00; Ср: 10:00-05:00; Чт: 10:00-05:00; Пт: 10:00-05:00; Сб: 10:00-05:00; Вс: 10:00-05:00 (до последнего клиента),+05:00,4.9,69,87088136901,,,,,,https://instagram.com/ps.5_portal,,https://wa.me/77088136901,,,,,51.17505,71.407062,https://2gis.com/firm/70000001080008973
Sniper X,,Клубы видеоигр; Компьютерные клубы,"проспект Бауыржан Момышулы, 6/1",цокольный этаж,,Юго-Восток (правая сторона) ж/м,Алматы район,Астана,,Астана,Казахстан,Пн: 00:00-24:00; Вт: 00:00-24:00; Ср: 00:00-24:00; Чт: 00:00-24:00; Пт: 00:00-24:00; Сб: 00:00-24:00; Вс: 00:00-24:00,+05:00,4.7,144,87476602423,,,,,,,,https://wa.me/77476602423,,,,,51.137893,71.47337,https://2gis.com/firm/70000001092985385
GG play,,Клубы видеоигр; Компьютерные клубы,"проспект Туран, 55к",,,,Нура район,Астана,,Астана,Казахстан,Пн: 00:00-24:00; Вт: 00:00-24:00; Ср: 00:00-24:00; Чт: 00:00-24:00; Пт: 00:00-24:00; Сб: 00:00-24:00; Вс: 00:00-24:00,+05:00,4.4,35,87086475251,,,romanutenbaev@gmail.com,,,https://instagram.com/ggplay.kz,,https://wa.me/77086475251,,,,,51.114793,71.394444,https://2gis.com/firm/70000001102751358
Shark,,Клубы видеоигр,"улица Желтоксан, 2т",,,,Сарыарка район,Астана,,Астана,Казахстан,Пн: 00:00-24:00; Вт: 00:00-24:00; Ср: 00:00-24:00; Чт: 00:00-24:00; Пт: 00:00-24:00; Сб: 00:00-24:00; Вс: 00:00-24:00,+05:00,5.0,164,87771407747,87776667978,,,http://tiktok.com/@shark_astana_ps,,https://instagram.com/shark_astana_ps5,,https://wa.me/77776667978,,,,,51.16175,71.420131,https://2gis.com/firm/70000001091411415
Corner,,Клубы видеоигр,"улица Кажымукан, 18/2",1 этаж,,4 м-н,Алматы район,Астана,,Астана,Казахстан,Пн: 13:00-05:00; Вт: 13:00-05:00; Ср: 13:00-05:00; Чт: 13:00-05:00; Пт: 13:00-05:00; Сб: 13:00-05:00; Вс: 13:00-05:00,+05:00,4.9,150,87052964533,,,,,,https://instagram.com/corner_ps5,,,,,,,51.154715,71.472887,https://2gis.com/firm/70000001090066453
League,,Клубы видеоигр,"улица Толе би, 53",,,,Нура район,Астана,,Астана,Казахстан,Пн: 16:00-02:00; Вт: 16:00-02:00; Ср: 16:00-02:00; Чт: 16:00-02:00; Пт: 16:00-02:00; Сб: 16:00-03:00; Вс: 16:00-03:00,+05:00,4.8,87,87712166680,,,,,,https://instagram.com/ps_league_official,,https://wa.me/77712166680,,,,,51.125106,71.3931,https://2gis.com/firm/70000001074565504
Zion,игровой клуб,Клубы видеоигр,"Аль-Фараби проспект, 34",,,,Есиль район,Астана,,Астана,Казахстан,Пн: 12:00-04:00; Вт: 12:00-04:00; Ср: 12:00-04:00; Чт: 12:00-04:00; Пт: 12:00-04:00; Сб: 12:00-04:00; Вс: 12:00-04:00,+05:00,5.0,147,87785070129,,,,,,https://instagram.com/zion_astana,,https://wa.me/77785070129,,,,,51.088928,71.449483,https://2gis.com/firm/70000001054275694
Qymyz Playhouse,,Клубы видеоигр; Кымызхана,"улица Александр Бараев, 25",,,,Байконыр район,Астана,,Астана,Казахстан,Пн: 16:00-04:00; Вт: 16:00-04:00; Ср: 16:00-04:00; Чт: 16:00-04:00; Пт: 16:00-04:00; Сб: 16:00-04:00; Вс: 16:00-04:00,+05:00,4.9,44,87758630061,,,,,,https://instagram.com/qymyz.play.house,,https://wa.me/77758630061,,,,,51.160841,71.438809,https://2gis.com/firm/70000001101163014
Cyber Eleven,,Клубы видеоигр; Компьютерные клубы,"улица Алихан Бокейхан, 11",1 этаж,,Заречное ж/м,Есиль район,Астана,,Астана,Казахстан,Пн: 00:00-24:00; Вт: 00:00-24:00; Ср: 00:00-24:00; Чт: 00:00-24:00; Пт: 00:00-24:00; Сб: 00:00-24:00; Вс: 00:00-24:00,+05:00,4.4,116,87777705505,,,,,,https://instagram.com/cyber.eleven,,https://wa.me/77777705505,,,,,51.105815,71.43505,https://2gis.com/firm/70000001041188790
Joystick,игровой клуб,Клубы видеоигр,"проспект Бауыржан Момышулы, 6/1",цокольный этаж,,Юго-Восток (правая сторона) ж/м,Алматы район,Астана,,Астана,Казахстан,Пн: 12:00-05:00; Вт: 12:00-05:00; Ср: 12:00-05:00; Чт: 12:00-05:00; Пт: 12:00-05:00; Сб: 12:00-05:00; Вс: 12:00-05:00,+05:00,4.6,52,87768889868,,,,,,https://instagram.com/joystickps5,,https://wa.me/77768889868,,,,,51.137823,71.47312,https://2gis.com/firm/70000001023907368
Dc prime zone,,Клубы видеоигр,"проспект Мангилик Ел, 59",5 офис,,,Есиль район,Астана,,Астана,Казахстан,Пн: 16:00-04:00; Вт: 16:00-04:00; Ср: 16:00-04:00; Чт: 16:00-04:00; Пт: 16:00-04:00; Сб: 15:00-04:00; Вс: 15:00-04:00,+05:00,4.5,41,87072015535,,,,,,https://instagram.com/dc_primezone,,https://wa.me/77072015535,,,,,51.085681,71.422278,https://2gis.com/firm/70000001083319543
Gold Game,игровой клуб,Клубы видеоигр,"улица Кайым Мухамедханов, 17/1",,,,Нура район,Астана,,Астана,Казахстан,Пн: 12:00-07:00; Вт: 12:00-07:00; Ср: 12:00-07:00; Чт: 12:00-07:00; Пт: 12:00-07:00; Сб: 12:00-07:00; Вс: 12:00-07:00,+05:00,4.8,170,87479707270,,,,,,https://instagram.com/goldgame_01,,https://wa.me/77479707270,,,,,51.141612,71.386439,https://2gis.com/firm/70000001041334036
Фанат,игровой клуб,Клубы видеоигр,"улица Сакена Сейфуллина, 5",,,,Сарыарка район,Астана,,Астана,Казахстан,Пн: 00:00-24:00; Вт: 00:00-24:00; Ср: 00:00-24:00; Чт: 00:00-24:00; Пт: 00:00-24:00; Сб: 00:00-24:00; Вс: 00:00-24:00,+05:00,4.7,303,87754683718,,,,,,https://instagram.com/ps5astana_fanat,,https://wa.me/77754683718,,,,,51.168979,71.401764,https://2gis.com/firm/70000001021553356
OINA,игровой клуб,Клубы видеоигр,"микрорайон Самал, 8",цокольный этаж,,Самал м-н,Сарыарка район,Астана,,Астана,Казахстан,Пн: 12:00-06:00; Вт: 12:00-06:00; Ср: 12:00-06:00; Чт: 12:00-06:00; Пт: 12:00-06:00; Сб: 12:00-06:00; Вс: 12:00-06:00,+05:00,4.6,115,87051144590,,,,http://oina-psclub.2gis.biz/,,https://instagram.com/oina_psclub,,https://wa.me/77051144590,,,,,51.156355,71.427961,https://2gis.com/firm/70000001048358725
Qasqir Rooms,,Клубы видеоигр; Компьютерные клубы,"улица Кенесары, 9",,,,Сарыарка район,Астана,,Астана,Казахстан,Пн: 00:00-24:00; Вт: 00:00-24:00; Ср: 00:00-24:00; Чт: 00:00-24:00; Пт: 00:00-24:00; Сб: 00:00-24:00; Вс: 00:00-24:00,+05:00,4.5,260,87000883999,87760883999,,,http://taplink.cc/qasqir_rooms,,https://instagram.com/qasqir_rooms,,https://wa.me/77000883999,,,,,51.163078,71.405689,https://2gis.com/firm/70000001061502564
Good game,игровой клуб,Клубы видеоигр,"улица Аманжол Болекпаев, 22",цокольный этаж,,,Сарайшык район,Астана,,Астана,Казахстан,Пн: 11:00-02:00; Вт: 11:00-02:00; Ср: 11:00-02:00; Чт: 11:00-02:00; Пт: 12:00-05:00; Сб: 12:00-05:00; Вс: 12:00-05:00,+05:00,4.9,57,87750405401,,,,,,https://instagram.com/good_game_astana_ps5,,https://wa.me/77750405401,,,,,51.120815,71.510368,https://2gis.com/firm/70000001093439475
R9,игровой клуб,Клубы видеоигр,"проспект Шакарим Кудайбердыулы, 25/1",цокольный этаж,,,Алматы район,Астана,,Астана,Казахстан,Пн: 15:00-02:00; Вт: 16:00-02:00; Ср: 15:00-02:00; Чт: 16:00-02:00; Пт: 15:00-03:00; Сб: 15:00-03:00; Вс: 15:00-02:00,+05:00,4.9,77,87788872331,,,,,,https://instagram.com/ps5_r9_gameclub,,https://wa.me/77788872331,,,,,51.155492,71.505399,https://2gis.com/firm/70000001057774040
Games Start,,Клубы видеоигр; Компьютерные клубы,"проспект Ракымжан Кошкарбаев, 29",цокольный этаж,,,Алматы район,Астана,,Астана,Казахстан,Пн: 00:00-24:00; Вт: 00:00-24:00; Ср: 00:00-24:00; Чт: 00:00-24:00; Пт: 00:00-24:00; Сб: 00:00-24:00; Вс: 00:00-24:00,+05:00,4.7,169,,,,,,,https://instagram.com/games_start_club,,,,,,,51.127861,71.490969,https://2gis.com/firm/70000001067591681
MN Infinity,,Клубы видеоигр; Компьютерные клубы,"улица Кенен Азербаев, 4",,,,Сарайшык район,Астана,,Астана,Казахстан,Пн: 10:00-06:00; Вт: 10:00-06:00; Ср: 10:00-06:00; Чт: 10:00-06:00; Пт: 10:00-06:00; Сб: 10:00-06:00; Вс: 10:00-06:00,+05:00,5.0,12,87715294548,,,,,,https://instagram.com/mn_infinity01,,https://wa.me/77715294548,,,,,51.128142,71.504192,https://2gis.com/firm/70000001104186637
Doма,,Клубы видеоигр; Компьютерные клубы,"улица Умай ана, 15",цокольный этаж; НП: 5,,,Нура район,Астана,,Астана,Казахстан,Пн: 00:00-24:00; Вт: 00:00-24:00; Ср: 00:00-24:00; Чт: 00:00-24:00; Пт: 00:00-24:00; Сб: 00:00-24:00; Вс: 00:00-24:00,+05:00,4.7,74,87772227750,,,,,,https://instagram.com/doma_cyber_lounge,,https://wa.me/77772227750,,,,,51.147065,71.390441,https://2gis.com/firm/70000001075797387
Игровой клуб,,Клубы видеоигр,"улица Сарайшык, 5/1",цокольный этаж,,,Есиль район,Астана,,Астана,Казахстан,Пн: 17:00-06:00; Вт: 17:00-06:00; Ср: 17:00-06:00; Чт: 17:00-06:00; Пт: 17:00-06:00; Сб: 15:00-06:00; Вс: 15:00-06:00,+05:00,4.6,64,87472667757,,,,,,,,https://wa.me/77472667757,,,,,51.137072,71.426561,https://2gis.com/firm/70000001031790164
Nomad,компьютерный клуб,Клубы видеоигр; Компьютерные клубы,"улица Чингиз Айтматов, 53п",,,,Нура район,Астана,,Астана,Казахстан,Пн: 00:00-24:00; Вт: 00:00-24:00; Ср: 00:00-24:00; Чт: 00:00-24:00; Пт: 00:00-24:00; Сб: 00:00-24:00; Вс: 00:00-24:00,+05:00,4.6,216,87070330770,,,,,,https://instagram.com/nomad_esports_astana,,https://wa.me/77070330770,,,,,51.1498,71.366374,https://2gis.com/firm/70000001069417980
Pipes,,Клубы видеоигр; Компьютерные клубы,"улица Шамши Калдаяков, 3",,,,Сарайшык район,Астана,,Астана,Казахстан,Пн: 14:00-03:00; Вт: 14:00-03:00; Ср: 14:00-03:00; Чт: 14:00-03:00; Пт: 14:00-03:00; Сб: 14:00-03:00; Вс: 14:00-03:00,+05:00,4.4,44,87020518148,,,,http://www.tiktok.com/@pipes_cyber_loundg,,https://instagram.com/pipes_cyber_lounge_astana,,https://wa.me/77020518148,,,,,51.119022,71.457796,https://2gis.com/firm/70000001082063724
One Play,,Клубы видеоигр,"проспект Магжана Жумабаева, 16/1",,,,Алматы район,Астана,,Астана,Казахстан,Пн: 00:00-24:00; Вт: 00:00-24:00; Ср: 00:00-24:00; Чт: 00:00-24:00; Пт: 00:00-24:00; Сб: 00:00-24:00; Вс: 00:00-24:00,+05:00,4.9,60,87079310002,87022666522,,,http://oneplay.2gis.biz,,https://instagram.com/one_play_playstation,,https://wa.me/77079310002,https://wa.me/77022666522,,,,51.151877,71.482504,https://2gis.com/firm/70000001051566047
PlayPass,,Клубы видеоигр,"улица Ахмет Байтурсынулы, 39/3",цокольный этаж,,,Сарайшык район,Астана,,Астана,Казахстан,Пн: 12:00-04:00; Вт: 12:00-04:00; Ср: 12:00-04:00; Чт: 12:00-04:00; Пт: 12:00-04:00; Сб: 12:00-04:00; Вс: 12:00-04:00,+05:00,5.0,33,87785759405,,,,,,https://instagram.com/playpass_astana_ps5,,https://wa.me/77785759405,,,,https://t.me/+77785759405,51.119861,71.501374,https://2gis.com/firm/70000001101466832
Taktika,,Клубы видеоигр,"улица Шаймерден Косшыгулулы, 25",въезд с ул. Шабал Бейсековой,,,Сарыарка район,Астана,,Астана,Казахстан,Пн: 00:00-24:00; Вт: 00:00-24:00; Ср: 00:00-24:00; Чт: 00:00-24:00; Пт: 00:00-24:00; Сб: 00:00-24:00; Вс: 00:00-24:00,+05:00,4.6,73,87761907140 (отдел бронирования),87077774253,,,http://taktikaps5.com,http://jivo.chat/uPqAI4O51e,https://instagram.com/taktika_ps5,https://vk.com/taktika_ps5,https://wa.me/77761907140,,,,https://t.me/taktika_ps5,51.171643,71.377893,https://2gis.com/firm/70000001060585292
Ast Game,клуб видеоигр,Клубы видеоигр,"микрорайон Самал, 9",цокольный этаж,,Самал м-н,Сарыарка район,Астана,,Астана,Казахстан,Пн: 12:00-05:00; Вт: 12:00-05:00; Ср: 12:00-05:00; Чт: 12:00-05:00; Пт: 12:00-05:00; Сб: 12:00-05:00; Вс: 12:00-05:00,+05:00,4.9,168,87476030279,87784447788,,xwz_razor@mail.ru,,,https://instagram.com/ast_gameps5_samal,,https://wa.me/77784447788,,,,,51.156189,71.427901,https://2gis.com/firm/70000001048038159
tut,игровой клуб,Клубы видеоигр,"улица Сауран, 20",,,,Есиль район,Астана,,Астана,Казахстан,Пн: 13:00-04:00; Вт: 13:00-04:00; Ср: 13:00-04:00; Чт: 13:00-04:00; Пт: 13:00-04:00; Сб: 13:00-04:00; Вс: 13:00-04:00 (до последнего гостя),+05:00,5.0,6,87076706571,,,,,,,,https://wa.me/77076706571,,,,,51.111921,71.416987,https://2gis.com/firm/70000001103713633
Striker,,Клубы видеоигр,"Кабанбай батыр проспект, 40",цокольный этаж,,,Есиль район,Астана,,Астана,Казахстан,Пн: 00:00-24:00; Вт: 00:00-24:00; Ср: 00:00-24:00; Чт: 00:00-24:00; Пт: 00:00-24:00; Сб: 00:00-24:00; Вс: 00:00-24:00,+05:00,4.5,39,87757084402,87757207474,,,,,,,,,,,,51.122009,71.414879,https://2gis.com/firm/70000001100242543
Prime Play,,Клубы видеоигр,"улица Култегин, 14",,,,Нура район,Астана,,Астана,Казахстан,Пн: 13:00-05:00; Вт: 13:00-05:00; Ср: 13:00-05:00; Чт: 13:00-05:00; Пт: 13:00-05:00; Сб: 13:00-05:00; Вс: 13:00-05:00,+05:00,5.0,59,87473690100,,,,,,https://instagram.com/primeplay_astana,,https://wa.me/77007760101,https://wa.me/77473690100,,,,51.136357,71.37437,https://2gis.com/firm/70000001103263244
Qasqir Rooms,,Клубы видеоигр; Компьютерные клубы,"переулок Шеркала, 2",,,,Сарыарка район,Астана,,Астана,Казахстан,Пн: 00:00-24:00; Вт: 00:00-24:00; Ср: 00:00-24:00; Чт: 00:00-24:00; Пт: 00:00-24:00; Сб: 00:00-24:00; Вс: 00:00-24:00,+05:00,4.6,432,87000886999,,,akhmet.aldiyar@gmail.com,http://taplink.cc/qasqir_rooms,,https://instagram.com/qasqir_rooms,,https://wa.me/77000886999,,,,,51.179959,71.422683,https://2gis.com/firm/70000001047453780
Ойын,игровой клуб,Клубы видеоигр,"улица Шамши Калдаяков, 11",цокольный этаж,,,Сарайшык район,Астана,,Астана,Казахстан,Пн: 14:00-02:00; Вт: 14:00-02:00; Ср: 14:00-02:00; Чт: 14:00-02:00; Пт: 14:00-02:00; Сб: 14:00-02:00; Вс: 14:00-02:00,+05:00,4.3,57,87478228505,87787822344,,,,,,,https://wa.me/77787822344,,,,,51.118686,71.461312,https://2gis.com/firm/70000001028912749
Ragnarok,игровой клуб,Клубы видеоигр,"улица Алексея Петрова, 1/2",,,2 м-н,Алматы район,Астана,,Астана,Казахстан,Пн: 00:00-03:00; Вт: 00:00-03:00; Ср: 00:00-03:00; Чт: 00:00-03:00; Пт: 00:00-03:00; Сб: 00:00-03:00; Вс: 00:00-03:00,+05:00,4.8,162,87006000703,,,,,,,,https://wa.me/77006000703,,,,,51.151119,71.462402,https://2gis.com/firm/70000001082009453
Игротека,игровой клуб,Клубы видеоигр,"проспект Улы Дала, 33",НП: 21,,,Нура район,Астана,,Астана,Казахстан,Пн: 12:00-03:00; Вт: 12:00-03:00; Ср: 12:00-03:00; Чт: 12:00-03:00; Пт: 12:00-03:00; Сб: 12:00-03:00; Вс: 12:00-03:00,+05:00,4.9,34,87088003012,87719691699,,,,,https://instagram.com/igroteka_astana01,,https://wa.me/77719691699,,,,,51.100052,71.401965,https://2gis.com/firm/70000001102242604
Ойын,игровой клуб,Клубы видеоигр,"улица Куйши Дина, 28",цокольный этаж,,,Алматы район,Астана,,Астана,Казахстан,Пн: 12:00-04:00; Вт: 12:00-04:00; Ср: 12:00-04:00; Чт: 12:00-04:00; Пт: 12:00-04:00; Сб: 12:00-04:00; Вс: 12:00-04:00,+05:00,4.7,81,87757095805,,,,,,https://instagram.com/insane_gaming_kuiyshi_dina,,https://wa.me/77757095805,,,,,51.148847,71.481555,https://2gis.com/firm/70000001052381848
Izzi,игровой клуб,Клубы видеоигр,"улица Шокана Уалиханова, 9/2",цокольный этаж,,,Байконыр район,Астана,,Астана,Казахстан,Пн: 14:00-04:00; Вт: 14:00-04:00; Ср: 14:00-04:00; Чт: 14:00-04:00; Пт: 14:00-04:00; Сб: 14:00-04:00; Вс: 14:00-04:00,+05:00,4.7,32,87052162023,,,,,,https://instagram.com/izzi_ps,,,,,,,51.165986,71.43795,https://2gis.com/firm/70000001080963704
King,игровой клуб,Клубы видеоигр,"проспект Сарыарка, 32",,,,Сарыарка район,Астана,,Астана,Казахстан,Пн: 12:00-06:00; Вт: 12:00-06:00; Ср: 12:00-06:00; Чт: 12:00-06:00; Пт: 12:00-06:00; Сб: 12:00-06:00; Вс: 12:00-06:00,+05:00,4.8,98,87718327319,87022397767,,,,,https://instagram.com/king_ps5_astana,,https://wa.me/77718327319,https://wa.me/77022397767,,,,51.173093,71.407279,https://2gis.com/firm/70000001067514745
Glavka,,Клубы видеоигр,"проспект Абылай хана, 2",,,,Алматы район,Астана,,Астана,Казахстан,Пн: 13:00-03:00; Вт: 13:00-03:00; Ср: 13:00-03:00; Чт: 13:00-03:00; Пт: 13:00-03:00; Сб: 13:00-03:00; Вс: 13:00-03:00,+05:00,5.0,27,87475553390,,,,,,https://instagram.com/Playstation_glavka,,https://wa.me/77475553390,,,,,51.158416,71.46897,https://2gis.com/firm/70000001104301512
Izzi,игровой клуб,Клубы видеоигр,"улица Хиуаз Доспанова, 1/1",цокольный этаж,,,Сарайшык район,Астана,,Астана,Казахстан,Пн: 14:00-04:00; Вт: 14:00-04:00; Ср: 14:00-04:00; Чт: 14:00-04:00; Пт: 14:00-04:00; Сб: 14:00-04:00; Вс: 14:00-04:00,+05:00,5.0,25,87778120032,,,,,,https://instagram.com/izzi_ps,,https://wa.me/77778120032,,,,,51.126502,71.506552,https://2gis.com/firm/70000001090585630
Arena Cyber Sport,интернет-клуб,Клубы видеоигр; Компьютерные клубы,"улица Маскеу, 40",1 этаж,,,Сарыарка район,Астана,,Астана,Казахстан,Пн: 00:00-24:00; Вт: 00:00-24:00; Ср: 00:00-24:00; Чт: 00:00-24:00; Пт: 00:00-24:00; Сб: 00:00-24:00; Вс: 00:00-24:00,+05:00,4.5,102,87053810609,,,,,,https://instagram.com/arena_cybersport,,https://wa.me/77053810609,,,,,51.182471,71.419811,https://2gis.com/firm/70000001079984928
Empire,игровой клуб,Клубы видеоигр,"улица Шамши Калдаяков, 26",,,,Сарайшык район,Астана,,Астана,Казахстан,Пн: 16:00-04:00; Вт: 16:00-04:00; Ср: 16:00-04:00; Чт: 16:00-04:00; Пт: 16:00-04:00; Сб: 16:00-04:00; Вс: 16:00-04:00,+05:00,5.0,69,87789288191,,,,,,,,https://wa.me/77789288191,,,,https://t.me/empire_of_games_ps5,51.112597,71.49293,https://2gis.com/firm/70000001095046542
Baza,,Клубы видеоигр,"проспект Ракымжан Кошкарбаев, 32/3 блок И",,,,Сарайшык район,Астана,,Астана,Казахстан,Пн: 00:00-24:00; Вт: 00:00-24:00; Ср: 00:00-24:00; Чт: 00:00-24:00; Пт: 00:00-24:00; Сб: 00:00-24:00; Вс: 00:00-24:00,+05:00,4.3,7,87782575382,,,,http://tiktok.com/@baza_ps5,,,,https://wa.me/77782575382,,,,,51.124743,71.481898,https://2gis.com/firm/70000001102452650
Baza,,Клубы видеоигр,"улица Кайрат Рыскулбеков, 16/1",цокольный этаж,,,Алматы район,Астана,,Астана,Казахстан,Пн: 12:00-07:00; Вт: 12:00-07:00; Ср: 12:00-07:00; Чт: 12:00-07:00; Пт: 12:00-07:00; Сб: 12:00-07:00; Вс: 12:00-07:00,+05:00,4.7,90,87075941717,,,,,,https://instagram.com/baza_psclub_ryskulbekova,,https://wa.me/77479707270,https://wa.me/77075941717,,,,51.159149,71.50442,https://2gis.com/firm/70000001028291334
NaVi Game Hub,,Клубы видеоигр; Компьютерные клубы; Копировальные услуги,"улица Габидена Мустафина, 21/2",,,,Алматы район,Астана,,Астана,Казахстан,Пн: 00:00-24:00; Вт: 00:00-24:00; Ср: 00:00-24:00; Чт: 00:00-24:00; Пт: 00:00-24:00; Сб: 00:00-24:00; Вс: 00:00-24:00,+05:00,4.1,118,87754457789,,,,,,https://instagram.com/navi_gamehub,,https://wa.me/77757628119,,,,,51.15689,71.508003,https://2gis.com/firm/70000001080797971
Cyber Room,игровой клуб,Клубы видеоигр,"проспект Магжана Жумабаева, 29/1",,,Юго-Восток (правая сторона) ж/м,Алматы район,Астана,,Астана,Казахстан,Пн: 00:00-24:00; Вт: 00:00-24:00; Ср: 00:00-24:00; Чт: 00:00-24:00; Пт: 00:00-24:00; Сб: 00:00-24:00; Вс: 00:00-24:00,+05:00,4.1,7,87789119695,87781874297,,,,,,,https://wa.me/77789119695,https://wa.me/77781874297,,,,51.136992,71.491005,https://2gis.com/firm/70000001080421564
chillzone_kz,,Клубы видеоигр,"улица Кенесары, 1",цокольный этаж,,,Сарыарка район,Астана,,Астана,Казахстан,Пн: 13:00-03:00; Вт: 13:00-03:00; Ср: 13:00-03:00; Чт: 13:00-03:00; Пт: 13:00-03:00; Сб: 13:00-03:00; Вс: 13:00-03:00,+05:00,4.5,8,87754503031,87079708180,,,,,https://instagram.com/chillzone_kz,,https://wa.me/77754503031,,,,,51.162206,71.399141,https://2gis.com/firm/70000001071470777
Games Start,,Клубы видеоигр; Компьютерные клубы,"улица Кайрат Рыскулбеков, 27/1",,,Аль-Фараби м-н,Алматы район,Астана,,Астана,Казахстан,Пн: 00:00-24:00; Вт: 00:00-24:00; Ср: 00:00-24:00; Чт: 00:00-24:00; Пт: 00:00-24:00; Сб: 00:00-24:00; Вс: 00:00-24:00,+05:00,4.7,241,87079143886,,,,,,https://instagram.com/game_start_ryskulbekova,,https://wa.me/77786394545,,,,,51.158632,71.499689,https://2gis.com/firm/70000001083534578
La Liga,,Клубы видеоигр,"проспект Нургиса Тлендиева, 15/4",,,,Сарыарка район,Астана,,Астана,Казахстан,Пн: 13:00-07:00; Вт: 13:00-07:00; Ср: 13:00-07:00; Чт: 13:00-07:00; Пт: 13:00-07:00; Сб: 13:00-07:00; Вс: 13:00-07:00,+05:00,4.9,161,87750931665,,,,,,,,https://wa.me/77750931665,,,,,51.178602,71.376908,https://2gis.com/firm/70000001042647095
Bro,клуб видеоигр,Клубы видеоигр,"улица Ахмет Байтурсынулы, 53",,,,Сарайшык район,Астана,,Астана,Казахстан,Пн: 12:00-08:00; Вт: 12:00-08:00; Ср: 12:00-08:00; Чт: 12:00-08:00; Пт: 12:00-08:00; Сб: 12:00-08:00; Вс: 12:00-08:00,+05:00,4.9,94,87021964065,,,,,,https://instagram.com/bro_ps5,,https://wa.me/77021964065,,,,,51.11644,71.523257,https://2gis.com/firm/70000001069379193
One Play,,Клубы видеоигр,"улица Чингиз Айтматов, 36",цокольный этаж,,Жагалау-3 жилой комплекс,Нура район,Астана,,Астана,Казахстан,Пн: 00:00-24:00; Вт: 00:00-24:00; Ср: 00:00-24:00; Чт: 00:00-24:00; Пт: 00:00-24:00; Сб: 00:00-24:00; Вс: 00:00-24:00,+05:00,4.9,37,87786072750,87053198544,,,http://oneplay.2gis.biz,,https://instagram.com/one_play_playstation,,https://wa.me/77786072750,,,,,51.135474,71.363637,https://2gis.com/firm/70000001077188079
Game club Dragao,клуб видеоигр,Клубы видеоигр,"улица Сыганак, 4",цокольный этаж,,,Нура район,Астана,,Астана,Казахстан,Пн: 13:00-04:00; Вт: 13:00-04:00; Ср: 13:00-04:00; Чт: 13:00-04:00; Пт: 13:00-04:00; Сб: 13:00-04:00; Вс: 13:00-04:00,+05:00,4.9,57,87719890937,,,,,,https://instagram.com/ps_market_01,,https://wa.me/77719890937,,,,,51.130424,71.366773,https://2gis.com/firm/70000001061955364
Арман,,Клубы видеоигр,"Керей, Жанибек хандар улица, 28",2 этаж,,,Есиль район,Астана,,Астана,Казахстан,Пн: 09:00-23:00; Вт: 09:00-23:00; Ср: 09:00-23:00; Чт: 09:00-23:00; Пт: 09:00-23:00; Сб: 09:00-23:00; Вс: 09:00-23:00,+05:00,5.0,9,87078781313,,,,,,,,,,,,,51.112477,71.434401,https://2gis.com/firm/70000001103297368
BigOFFside,,Клубы видеоигр,"улица Кенжебек Кумисбеков, 11",,,,Сарыарка район,Астана,,Астана,Казахстан,Пн: 12:00-06:00; Вт: 12:00-06:00; Ср: 12:00-06:00; Чт: 12:00-06:00; Пт: 12:00-06:00; Сб: 12:00-06:00; Вс: 12:00-06:00 (до последнего гостя: пн-вс),+05:00,4.9,196,87753561296,,,,,,https://instagram.com/bigoffside.astana,,https://wa.me/77753561296,,,,,51.171741,71.396526,https://2gis.com/firm/70000001075321084
8bit,,Клубы видеоигр,"улица Жумекен Нажимеденов, 13",,,,Сарайшык район,Астана,,Астана,Казахстан,Пн: 12:00-02:00; Вт: 12:00-02:00; Ср: 12:00-02:00; Чт: 12:00-02:00; Пт: 00:00-24:00; Сб: 00:00-24:00; Вс: 00:00-24:00,+05:00,5.0,16,87083201723,,,,,,https://instagram.com/ps5_8bit,,https://wa.me/77083201723,,,,,51.114966,71.509935,https://2gis.com/firm/70000001104446366
Jax,игровой клуб,Клубы видеоигр,"улица Илияса Есенберлина, 26",,,,Сарыарка район,Астана,,Астана,Казахстан,Пн: 00:00-24:00; Вт: 00:00-24:00; Ср: 00:00-24:00; Чт: 00:00-24:00; Пт: 00:00-24:00; Сб: 00:00-24:00; Вс: 00:00-24:00,+05:00,4.8,197,87071150190,,,,,,https://instagram.com/jax_ps5_club,,https://wa.me/77071150190,,,,,51.188703,71.41438,https://2gis.com/firm/70000001028101659
El Clasico,,Клубы видеоигр,"улица Е 669, 4",,,,Есиль район,Астана,,Астана,Казахстан,Пн: 13:00-03:00; Вт: 13:00-03:00; Ср: 13:00-03:00; Чт: 13:00-03:00; Пт: 13:00-03:00; Сб: 13:00-03:00; Вс: 17:00-03:00 (до последнего клиента),+05:00,5.0,15,87077100850,,,,,,,,,,,,,51.087759,71.468176,https://2gis.com/firm/70000001103743859
Игровой клуб,,Клубы видеоигр,"проспект Республики, 58",1 этаж,,,Сарыарка район,Астана,,Астана,Казахстан,Пн: 12:00-04:00; Вт: 12:00-04:00; Ср: 12:00-04:00; Чт: 12:00-04:00; Пт: 12:00-04:00; Сб: 12:00-04:00; Вс: 12:00-04:00 (по предварительной записи),+05:00,4.4,24,87078554555,,,,,,https://instagram.com/play_ps5_astana,,https://wa.me/77078554555,,,,,51.183058,71.422958,https://2gis.com/firm/70000001029502897
Battle,игровой клуб,Клубы видеоигр,"улица Ыкылас Дукенулы, 37/2",,,,Сарыарка район,Астана,,Астана,Казахстан,Пн: 12:00-06:00; Вт: 12:00-06:00; Ср: 12:00-06:00; Чт: 12:00-06:00; Пт: 12:00-06:00; Сб: 12:00-06:00; Вс: 12:00-06:00,+05:00,4.8,17,87764572408,,,,,,https://instagram.com/battle_ps_astana,,https://wa.me/77764572408,,,,,51.182801,71.438882,https://2gis.com/firm/70000001067885502
Games Start,,Клубы видеоигр; Компьютерные клубы,"улица Шаймерден Косшыгулулы, 3/1",,,,Сарыарка район,Астана,,Астана,Казахстан,Пн: 00:00-24:00; Вт: 00:00-24:00; Ср: 00:00-24:00; Чт: 00:00-24:00; Пт: 00:00-24:00; Сб: 00:00-24:00; Вс: 00:00-24:00,+05:00,4.2,93,,,,,,,https://instagram.com/games_start_club,,,,,,,51.167184,71.392225,https://2gis.com/firm/70000001093997543
Hayat,клуб видеоигр,Клубы видеоигр,"проспект Шакарим Кудайбердыулы, 32",,,Аль-Фараби м-н,Алматы район,Астана,,Астана,Казахстан,Пн: 07:00-02:00; Вт: 07:00-02:00; Ср: 07:00-02:00; Чт: 07:00-02:00; Пт: 07:00-02:00; Сб: 07:00-02:00; Вс: 07:00-02:00,+05:00,,,87071469833,,,,,,,,https://wa.me/77071469833,,,,,51.157206,71.49534,https://2gis.com/firm/70000001102545725
Game club Dragao,клуб видеоигр,Клубы видеоигр,"проспект Нургиса Тлендиева, 15/2",,,,Сарыарка район,Астана,,Астана,Казахстан,Пн: 14:00-04:00; Вт: 14:00-04:00; Ср: 14:00-04:00; Чт: 14:00-04:00; Пт: 14:00-04:00; Сб: 14:00-04:00; Вс: 14:00-04:00,+05:00,5.0,14,87009612468,,,,,,,,https://wa.me/77009612468,,,,,51.180041,71.373266,https://2gis.com/firm/70000001104021122
Sniper X,,Клубы видеоигр; Компьютерные клубы,"улица Конституции, 11Б",1 этаж,,Агрогородок м-н,Сарыарка район,Астана,,Астана,Казахстан,Пн: 00:00-24:00; Вт: 00:00-24:00; Ср: 00:00-24:00; Чт: 00:00-24:00; Пт: 00:00-24:00; Сб: 00:00-24:00; Вс: 00:00-24:00,+05:00,4.4,111,87025554377,,,,,,,,https://wa.me/77025554377,,,,,51.195157,71.394633,https://2gis.com/firm/70000001078948157
Roma,игровой клуб,Клубы видеоигр,"улица Бейбарыс Султан, 6/1",,,,Сарыарка район,Астана,,Астана,Казахстан,Пн: 00:00-24:00; Вт: 00:00-24:00; Ср: 00:00-24:00; Чт: 00:00-24:00; Пт: 00:00-24:00; Сб: 00:00-24:00; Вс: 00:00-24:00,+05:00,4.8,75,,,,,,,https://instagram.com/roma_ps5,,https://wa.me/77756894102,,,,,51.171676,71.371313,https://2gis.com/firm/70000001091689975
Champions league,,Клубы видеоигр,"улица Акан Серы, 18",,,Агрогородок м-н,Сарыарка район,Астана,,Астана,Казахстан,Пн: 12:00-04:00; Вт: 12:00-04:00; Ср: 12:00-04:00; Чт: 12:00-04:00; Пт: 12:00-04:00; Сб: 12:00-04:00; Вс: 12:00-04:00,+05:00,5.0,72,87779898808,,,,http://tiktok.com/@champions_league_ps5,,https://instagram.com/champions_league_ps5,,https://wa.me/77779898808,,,,,51.187857,71.380515,https://2gis.com/firm/70000001081870990
DD,,Клубы видеоигр,"улица Алии Молдагуловой, 30",,,,Сарыарка район,Астана,,Астана,Казахстан,Пн: 12:00-02:00; Вт: 12:00-02:00; Ср: 12:00-02:00; Чт: 12:00-02:00; Пт: 12:00-02:00; Сб: 12:00-02:00; Вс: 12:00-02:00,+05:00,4.7,23,87054555876,,,,,,https://instagram.com/dd_playstation_astana,,https://wa.me/77054555876,,,,,51.185799,71.414512,https://2gis.com/firm/70000001081529421
Game club,игровой клуб,Клубы видеоигр; Прокат игровых приставок; Центры виртуальной реальности,"улица Бейбарыс Султан, 6/1",цокольный этаж,,,Сарыарка район,Астана,,Астана,Казахстан,Пн: 00:00-24:00; Вт: 00:00-24:00; Ср: 00:00-24:00; Чт: 00:00-24:00; Пт: 00:00-24:00; Сб: 00:00-24:00; Вс: 00:00-24:00,+05:00,4.6,45,,,,,,,https://instagram.com/gameclubps_5,,https://wa.me/77057420417,,,,,51.171676,71.371313,https://2gis.com/firm/70000001059242689
Игровой клуб,,Клубы видеоигр,"Аль-Фараби проспект, 22",,,,Есиль район,Астана,,Астана,Казахстан,Пн: 14:00-04:00; Вт: 14:00-04:00; Ср: 14:00-04:00; Чт: 14:00-04:00; Пт: 14:00-04:00; Сб: 14:00-04:00; Вс: 14:00-04:00,+05:00,,,87027515759,,,,,,,,,,,,,51.09374,71.451393,https://2gis.com/firm/70000001101369806
Берекет,бильярдный клуб,Клубы видеоигр; Бильярдные залы,"улица Жумекен Нажимеденов, 39",НП: 9,,,Сарайшык район,Астана,,Астана,Казахстан,Пн: 14:00-04:00; Вт: 14:00-04:00; Ср: 14:00-04:00; Чт: 14:00-04:00; Пт: 14:00-04:00; Сб: 14:00-04:00; Вс: 14:00-04:00,+05:00,5.0,7,87780993972,,,,,,https://instagram.com/bereket.billiards,,https://wa.me/77780993972,,,,,51.108922,71.54161,https://2gis.com/firm/70000001100913090
Game&Grill,клуб видеоигр,Клубы видеоигр,"Е 117 улица, 38",,,,Есиль район,Астана,,Астана,Казахстан,Пн: 10:00-02:00; Вт: 10:00-02:00; Ср: 10:00-02:00; Чт: 10:00-02:00; Пт: 10:00-02:00; Сб: 10:00-02:00; Вс: 10:00-02:00,+05:00,5.0,8,87066862070,,,,,,https://instagram.com/game_and_grill,,https://wa.me/77066862070,,,,,51.078283,71.493705,https://2gis.com/firm/70000001103044916
Boom,,Клубы видеоигр,"улица Бейбарыс Султан, 25/1",цокольный этаж,,,Сарыарка район,Астана,,Астана,Казахстан,Пн: 15:00-04:00; Вт: 15:00-04:00; Ср: 15:00-04:00; Чт: 15:00-04:00; Пт: 15:00-04:00; Сб: 12:00-05:00; Вс: 12:00-05:00 (по предварительной записи: пн-вс 00:00-12:00),+05:00,5.0,124,87751371800,,,,,,https://instagram.com/boom.psclub.astana,,https://wa.me/77751371800,,,,,51.171958,71.356534,https://2gis.com/firm/70000001082757430
Playroom,,Клубы видеоигр,"улица Балкантау, 10",,,Юго-Восток (правая сторона) ж/м,Алматы район,Астана,,Астана,Казахстан,Пн: 12:00-02:00; Вт: 12:00-02:00; Ср: 12:00-02:00; Чт: 12:00-02:00; Пт: 12:00-02:00; Сб: 12:00-02:00; Вс: 12:00-02:00,+05:00,5.0,1,87712950101,,,,,,https://instagram.com/play_room_ps5,,https://wa.me/77712950101,,,,,51.13903,71.512263,https://2gis.com/firm/70000001103978342
Gamer,игровой клуб,Клубы видеоигр; Компьютерные клубы,"улица Ыргыз, 27",цокольный этаж,,Юго-Восток (левая сторона) ж/м,Алматы район,Астана,,Астана,Казахстан,Пн: 14:00-04:00; Вт: 14:00-04:00; Ср: 14:00-04:00; Чт: 14:00-04:00; Пт: 14:00-04:00; Сб: 14:00-04:00; Вс: 14:00-04:00,+05:00,4.8,181,87058860266,,,,,,https://instagram.com/gamer_ps5club,,https://wa.me/77058860266,,,,,51.145697,71.511119,https://2gis.com/firm/70000001062283943
Aviator,,Клубы видеоигр,"улица Сарытогай, 13",,,Пригородный ж/м,Есиль район,Астана,,Астана,Казахстан,Пн: 13:00-03:00; Вт: 13:00-03:00; Ср: 13:00-03:00; Чт: 13:00-03:00; Пт: 13:00-03:00; Сб: 13:00-03:00; Вс: 13:00-03:00,+05:00,4.7,24,87479574243,,,,,,https://instagram.com/aviator_ps5,,https://wa.me/77479574243,,,,,51.042286,71.427167,https://2gis.com/firm/70000001100259867
Lions,,Клубы видеоигр,"проспект Нургиса Тлендиева, 15/2",цокольный этаж,,,Сарыарка район,Астана,,Астана,Казахстан,Пн: 00:00-24:00; Вт: 00:00-24:00; Ср: 00:00-24:00; Чт: 00:00-24:00; Пт: 00:00-24:00; Сб: 00:00-24:00; Вс: 00:00-24:00,+05:00,5.0,38,87752877701,87475444446,,,,,,,https://wa.me/77752877701,,,,,51.180041,71.373266,https://2gis.com/firm/70000001097609002
Мортал комбат,клуб видеоигр,Клубы видеоигр,"улица Хачатуряна, 16",,,,Байконыр район,Астана,,Астана,Казахстан,Пн: 11:00-23:00; Вт: 11:00-23:00; Ср: 11:00-23:00; Чт: 11:00-23:00; Пт: 11:00-23:00; Сб: 11:00-23:00; Вс: 11:00-23:00,+05:00,4.3,5,87009641327,,,,,,https://instagram.com/ps5__astana,,https://wa.me/77009641327,,,,,51.195184,71.464515,https://2gis.com/firm/70000001099327532
BuLike,,Клубы видеоигр,"улица Кокарал, 2",,,Промышленный ж/м,Сарайшык район,Астана,,Астана,Казахстан,Пн: 00:00-24:00; Вт: 00:00-24:00; Ср: 00:00-24:00; Чт: 00:00-24:00,+05:00,,,87003023294,,,,,,https://instagram.com/bu_like_banya,,https://wa.me/77003023294,,,,,51.132756,71.525821,https://2gis.com/firm/70000001098836520
Altron,компьютерный клуб,Клубы видеоигр; Компьютерные клубы,"201 улица, 29а",,,Үркер ж/м,Нура район,Астана,,Астана,Казахстан,Пн: 00:00-24:00; Вт: 00:00-24:00; Ср: 00:00-24:00; Чт: 00:00-24:00; Пт: 00:00-24:00; Сб: 00:00-24:00; Вс: 00:00-24:00,+05:00,4.6,62,87751711539,87758888348,,,,,https://instagram.com/altron_urker,,https://wa.me/77751711539,https://wa.me/77758888348,,,,51.133046,71.287804,https://2gis.com/firm/70000001092472976
NPC,,Клубы видеоигр; Компьютерные клубы,"улица Лесная поляна, 16",цокольный этаж,,Лесная поляна м-н,,Косшы,Косшы городская администрация,Акмолинская область,Казахстан,Пн: 00:00-24:00; Вт: 00:00-24:00; Ср: 00:00-24:00; Чт: 00:00-24:00; Пт: 00:00-24:00; Сб: 00:00-24:00; Вс: 00:00-24:00,+05:00,4.8,308,87085946438,,,,,,https://instagram.com/npc_gamer_hab,,https://wa.me/77085946438,,,,,51.003308,71.375615,https://2gis.com/firm/70000001080008959
Baza,клуб видеоигр,Клубы видеоигр,"улица Лесная поляна, 7",цокольный этаж,,Лесная поляна м-н,,Косшы,Косшы городская администрация,Акмолинская область,Казахстан,Пн: 13:00-08:00; Вт: 13:00-08:00; Ср: 13:00-08:00; Чт: 13:00-08:00; Пт: 13:00-08:00; Сб: 13:00-08:00; Вс: 13:00-08:00,+05:00,4.5,15,87783213398,,,,,,,,https://wa.me/77783213398,,,,,51.000526,71.374517,https://2gis.com/firm/70000001076648132
Brother,,Клубы видеоигр,"улица Лесная поляна, 10",ВП: 6,,Лесная поляна м-н,,Косшы,Косшы городская администрация,Акмолинская область,Казахстан,Пн: 12:00-04:30; Вт: 12:00-04:30; Ср: 12:00-04:30; Чт: 12:00-04:30; Пт: 12:00-04:30; Сб: 12:00-04:30; Вс: 12:00-04:30,+05:00,5.0,6,,,,,,,https://instagram.com/psclubbrother,,,,,,,51.00064,71.36992,https://2gis.com/firm/70000001088082258
Клуб видеоигр,,Клубы видеоигр; Прокат игровых приставок,"улица Курмангазы, 6",,,,,,Целиноградский район,Акмолинская область,Казахстан,Пн: 20:00-07:00; Вт: 20:00-07:00; Ср: 20:00-07:00; Чт: 20:00-07:00; Пт: 20:00-07:00; Сб: 20:00-07:00; Вс: 20:00-07:00,+05:00,,,87780609859,,,,,,,,,,,,,51.24423,71.154214,https://2gis.com/firm/70000001102464688
Бәкеңғой,,Клубы видеоигр,"улица Лесная поляна, 17",цокольный этаж; ВП: 22,,Лесная поляна м-н,,Косшы,Косшы городская администрация,Акмолинская область,Казахстан,Пн: 12:00-24:00; Вт: 12:00-24:00; Ср: 12:00-24:00; Чт: 12:00-24:00; Пт: 12:00-24:00; Сб: 12:00-24:00; Вс: 12:00-24:00 (до последнего гостя),+05:00,4.7,63,87755038709,,,,,,https://instagram.com/bakengoi_ps,,https://wa.me/77755038709,,,,,51.002478,71.373276,https://2gis.com/firm/70000001042548015
Клуб видеоигр,,Клубы видеоигр,"улица Абая Кунанбаева, 14а",,,,,,Целиноградский район,Акмолинская область,Казахстан,Пн: 12:00-24:00; Вт: 12:00-24:00; Ср: 12:00-24:00; Чт: 12:00-24:00; Пт: 12:00-24:00; Сб: 12:00-24:00; Вс: 12:00-24:00,+05:00,1.4,1,87785235737,,,,,,,,https://wa.me/77785235737,,,,,51.253173,71.144353,https://2gis.com/firm/70000001101109175
Игровой клуб,,Клубы видеоигр,"улица Жамбыла Жабаева, 48а",,,Железнодорожный ж/м,Алматы район,Астана,,Астана,Казахстан,Пн: 11:00-03:00; Вт: 11:00-03:00; Ср: 11:00-03:00; Чт: 11:00-03:00; Пт: 11:00-03:00; Сб: 11:00-03:00; Вс: 11:00-03:00,+05:00,5.0,3,87024416367,,,,,,,,https://wa.me/77024416367,,,,,51.143199,71.570847,https://2gis.com/firm/70000001063142336
Akmol,клуб видеоигр,Клубы видеоигр,"улица Жана жол, 30Б",,,,,,Целиноградский район,Акмолинская область,Казахстан,Пн: 15:00-04:00; Вт: 15:00-04:00; Ср: 15:00-04:00; Чт: 15:00-04:00; Пт: 15:00-04:00; Сб: 15:00-04:00; Вс: 15:00-04:00,+05:00,5.0,1,87784969244,,,,,,,,https://wa.me/77784969244,,,,,51.068972,70.980981,https://2gis.com/firm/70000001088458809
Black,клуб видеоигр,Клубы видеоигр,"улица Ахмет Байтурсынулы, 40",,,,Сарайшык район,Астана,,Астана,Казахстан,Пн: 10:00-24:00; Вт: 10:00-24:00; Ср: 10:00-24:00; Чт: 10:00-24:00; Пт: 10:00-24:00; Сб: 10:00-24:00; Вс: 10:00-24:00,+05:00,4.5,35,87075087921,,,,,,https://instagram.com/black.psclub,,https://wa.me/77075087901,,,,,51.112819,71.542568,https://2gis.com/firm/70000001095647241
